
{
  "placemarks": [
    {
      "name": "Agencia de la ONU para los Refugiados",
      "google_place_id": "",
      "type": "",
      "features": [],
      "coordinates": [],
      "address": "21 Oriente N° 22, entre 9a y 11a Norte, Colonia Lomas del Soconusco.",
      "phones": [],
      "description": "",
      "hours": ""
    }, {
      "name": "Organización Internacional para las Migraciones",
      "google_place_id": "",
      "type": "",
      "features": [],
      "coordinates": [],
      "address": "Blvd. Díaz Ordaz N° 11, Planta Baja, Colonia Cedros de Erika,",
      "phones": ["+52 962 642 5674"],
      "description": "",
      "hours": ""
    },{
      "name": "CENTRO DE DERECHOS HUMANOS FRAY MATIAS DE CÓRDOVA AC",
      "google_place_id": "",
      "type": "",
      "features": [],
      "coordinates": [],
      "address": "4a Avenida Sur N° 6, entre central y 2a Poniente, Colonia Centro.",
      "phones": [],
      "description": "",
      "hours": "Lunes a Viernes, 9 a 14 h."
    },{
      "name": "CENTRO DE ATENCIÓN PASTORAL A PERSONAS MIGRANTES Y REFUGIADAS",
      "google_place_id": "",
      "type": "",
      "features": [],
      "coordinates": [],
      "address": "17 Calle Ponientes s/n entre 4a y 6a Av. Norte, Colonia Centro.",
      "phones": [],
      "description": "",
      "hours": "Lunes a Viernes, 10 a 14 h"
    },{
      "name": "SERVICIO JESUITA A REFUGIADOS",
      "google_place_id": "",
      "type": "",
      "features": [],
      "coordinates": [],
      "address": "19 Oriente N° 38 entre 7a y 9a Norte",
      "phones": [],
      "description": "",
      "hours": "Lunes a Viernes, 9 a 14 h"
    },{
      "name": "ALBERGUE JESÚS EL BUEN PASTOR DEL POBRE Y DEL MIGRANTE AC",
      "google_place_id": "",
      "type": "",
      "features": [],
      "coordinates": [],
      "address": "Entronque a Raymundo Enriquez, a 500 metros.",
      "phones": [],
      "description": "",
      "hours": ""
    },{
      "name": "ALBERGUE BELÉN",
      "google_place_id": "",
      "type": "",
      "features": [],
      "coordinates": [],
      "address": "Av. Hidalgo N° 2, Colonia San Antonio Cahoacán. ",
      "phones": [],
      "description": "",
      "hours": "Todos los días, 8 a 20 h."
    },{
      "name": "ASESORÍA EN EDUCACIÓN RET INTERNACIONAL 3a",
      "google_place_id": "",
      "type": "",
      "features": [],
      "coordinates": [],
      "address": "Norte N° 1, entre Central y Ia Oriente, Colonia Centro,",
      "phones": [],
      "description": "",
      "hours": "Lunes a Viernes, 8 a 16 h"
    },{
      "name": "INICIATIVA PARA EL DESARROLLO HUMANO AC 'ESCUELA LIBRE LAS Y LOS AMIGOS'",
      "google_place_id": "",
      "type": "",
      "features": [],
      "coordinates": [],
      "address": "Colonia Sierra 1 manzana 4 lote 37.",
      "phones": [],
      "description": "",
      "hours": "Sábados, 10 a 13 h."
    },{
      "name": "CENTRO DE SALUD URBANO TAPACHULA",
      "google_place_id": "",
      "type": "",
      "features": [],
      "coordinates": [],
      "address": "8a Norte, entre 19 y 21 Oriente, Colonia 5 de Febrero.",
      "phones": [],
      "description": "",
      "hours": "Turnos: M-V. Entrega de fichas: 7 a 9 y 14 a 16 h."
    },{
      "name": "CENTRO DE SALUD URBANO SANTA CLARA ",
      "google_place_id": "",
      "type": "",
      "features": [],
      "coordinates": [],
      "address": "Prolongación Duraznos, s/n, Laureles, Santa Clara",
      "phones": [],
      "description": "",
      "hours": "Entrega de fichas: 7 a 8 y 12 a 13 h"
    },{
      "name": "CENTRO DE SALUD URBANO RAYMUNDO ENRIQUE!",
      "google_place_id": "",
      "type": "",
      "features": [],
      "coordinates": [],
      "address": "Central Oriente y 3a Norte, camino al panteón, s/n, entre Los Pinos y Los Cafetales.",
      "phones": [],
      "description": "",
      "hours": "Entrega de fichas: 7 a 8 h."
    },{
      "name": "HOSPITAL GENERAL TAPACHULA 'DR. MANUEL VELASCO SUÁRE2'",
      "google_place_id": "",
      "type": "",
      "features": [],
      "coordinates": [],
      "address": " Carretera a Puerto Madero S/N, Col. Feliciano Renauld. ",
      "phones": [],
      "description": "",
      "hours": "Emergencias. Abierto las 24 horas."
    },{
      "name": "UNA MANO AMIGA EN LA LUCHA CONTRA EL SIDA AC. ",
      "google_place_id": "",
      "type": "",
      "features": [],
      "coordinates": [],
      "address": "Central Norte N° 168 Altos, Colonia 5 de Febrero.",
      "phones": [],
      "notes": "Atención al colectivo lgbt+ .",
      "hours": "Lunes a Viernes, 9 a 15 h."
    },{
      "name": "COMISIÓN ESTATAL DE LOS DERECHOS HUMANOS ",
      "google_place_id": "",
      "type": "",
      "features": [],
      "coordinates": [],
      "address": "13 Norte N° 87. entre 19 y 21 Oriente. ",
      "phones": [],
      "description": "",
      "hours": "Lunes a Viernes: 8 a 16 h."
    },{
      "name": "COMISIÓN NACIONAL DE DERECHOS HUMANOS",
      "google_place_id": "",
      "type": "",
      "features": [],
      "coordinates": [],
      "address": "15 Oriente N°20, entre 3a y 5a Norte, Col. Centro.",
      "phones": [],
      "description": "",
      "hours": " Lunes a Viernes: 9 a 19 h."
    },{
      "name": "FISCALÍA ESPECIALIZADA EN DELITOS COMETIDOS EN CONTRA DE MIGRANTES",
      "google_place_id": "",
      "type": "",
      "features": [],
      "coordinates": [],
      "address": "Boulevard Díaz Orduz N° 9, Col. Lomas de Sayula",
      "phones": [],
      "description": "",
      "hours": "Lunes a Viernes: 9 a 21 h. Sábado: 10 a 14 h."
    },{
      "name": "Albergue Jesús Esperanza en el Camino.",
      "google_place_id": "",
      "type": "",
      "features": [],
      "coordinates": [],
      "address": " Ia calle Poniente y 16 Sur N° 1664.",
      "phones": [],
      "description": "",
      "hours": "",
      "notes": "movilidadmt25@hotmail.com"
    },{
      "name": "Una Ayuda Para Ti Mujer Migrante A,C.",
      "google_place_id": "",
      "type": "",
      "features": [],
      "coordinates": [],
      "address": "",
      "phones": ["01	961 61 67 903"],
      "description": "",
      "hours": ""
    },{
      "name": "Oficina de Atención a Migrantes y Refugiados / Servicio Jesuíta a Migrantes",
      "google_place_id": "",
      "type": "",
      "features": [],
      "coordinates": [],
      "address": " 2a calle Norte-Poniente Entre 2a y 3o Av. Poniente-Norte",
      "phones": [],
      "description": "",
      "hours": ""
    },{
      "name": "Colectivo Kaltsilaltik",
      "google_place_id": "",
      "type": "",
      "features": [],
      "coordinates": [],
      "address": "",
      "phones": ["963 135 9422"],
      "description": "",
      "hours": ""
    },{
      "name": "Centro de Atención y Defensoria de los Derechos de las Mujeres en las Migraciones 'La Morada'",
      "google_place_id": "",
      "type": "",
      "features": [],
      "coordinates": [],
      "address": "3a Av. Oriente Norte, Barrio La Pila, ",
      "phones": ["963 632 8400 "],
      "description": "lamoradacomitan@gmail.com",
      "hours": ""
    },{
      "name": "Voces Mesoamericanas - Acción con Pueblos Migrantes",
      "google_place_id": "",
      "type": "",
      "features": [],
      "coordinates": [],
      "address": "Francisco Villa N° 10, Barrio de Fatima",
      "phones": ["01 967 674 7811"],
      "description": "",
      "hours": ""
    },{
      "name": "Casa del Migrante San Martín de Porres",
      "google_place_id": "",
      "type": "",
      "features": [],
      "coordinates": [],
      "address": "Prolongación Insurgentes N° 87",
      "phones": ["01 967 678 2776"],
      "description": "",
      "hours": ""
    },{
      "name": "Formación y Capacitación A.C. Julio M. Corzo",

      "google_place_id": "",
      "type": "",
      "features": [],
      "coordinates": [],
      "address": "33 Barrio de Santa Lucía.",
      "phones": ["967 674 5310"],
      "description": "",
      "hours": ""
    },{
      "name": "Casa del Caminante Jtatic Samuel Ruiz",
      "google_place_id": "",
      "type": "",
      "features": [],
      "coordinates": [],
      "address": "Pasa la vía, Xkichan, mano izquierda, 1o A,cuadra a la derecha",
      "phones": [],
      "description": "",
      "hours": ""
    },{
      "name": "Casa del Caminante, ",
      "google_place_id": "",
      "type": "",
      "features": [],
      "coordinates": [],
      "address": "Barrio San Francisco, Col. Pakal-ná",
      "phones": [],
      "description": "",
      "hours": ""
    },{
      "name": "Albergue Hermanos en el Camino A.C.",
      "google_place_id": "",
      "type": "",
      "features": [],
      "coordinates": [],
      "address": "Av. Ferrocarril Pte. N° 60, Barrio de La Soledad",
      "phones": ["01	971 1034385"],
      "description": "",
      "hours": ""
    },{
      "name": "La 72, Hogar Refugio para Personas Migrantes",
      "google_place_id": "",
      "type": "",
      "features": [],
      "coordinates": [],
      "address": "Estación Nueva N° 86901, Tenosique de Pino Suárez.",
      "phones": ["01 934 342 1111"],
      "description": "",
      "hours": ""
    },{
      "name": "",
      "google_place_id": "",
      "type": "",
      "features": [],
      "coordinates": [],
      "address": "",
      "phones": [],
      "description": "",
      "hours": ""
    },{
      "name": "",
      "google_place_id": "",
      "type": "",
      "features": [],
      "coordinates": [],
      "address": "",
      "phones": [],
      "description": "",
      "hours": ""
    },{
      "name": "",
      "google_place_id": "",
      "type": "",
      "features": [],
      "coordinates": [],
      "address": "",
      "phones": [],
      "description": "",
      "hours": ""
    }
  ]
}
