{
  "placemarks": [
    {
      "name": "Enclave Caracol",
      "type": "food",
      "coordinates": [-117.036088,32.537013]
    },
    {
      "name": "Comedor Contra Viento y Marea",
      "type": "food",
      "coordinates": [-117.047227,32.535897]
    },
    {
      "name": "Espacio Migrante",
      "type": "shelter",
      "coordinates": [-117.0343361,32.538251]
    },
    {
      "name": "Templo Embajadores De Jesús",
      "type": "shelter",
      "coordinates": [-117.0797079,32.5078566]
    },
    {
      "name": "Pro Amore Dei",
      "type": "shelter",
      "coordinates": [-117.0588042,32.5200195]
    },
    {
      "name": "Casa Del Deportation Sagrado Corazon",
      "type": "shelter",
      "coordinates": [-117.0541606,32.5390823]
    },
    {
      "name": "Movimiento Juventud 2000 Secc. Tijuana AC",
      "type": "shelter",
      "coordinates": [-117.0393728,32.5403182]
    },
    {
      "name": "Desayunador Salesiano Padre Chava",
      "type": "shelter",
      "coordinates": [-117.032126,32.5367559]
    },
    {
      "name": "Programa YMCA de Desarrollo Comunitario y Asistencia Social, A.C.",
      "type": "shelter",
      "coordinates": [-117.0226056,32.5119193]
    },
    {
      "name": "Ejercito De Salvación",
      "type": "shelter",
      "coordinates": [-117.0124358,32.5353128]
    },
    {
      "name": "Ejercito De Salvación Casa Puerta de Esperanza",
      "type": "shelter",
      "coordinates": [-117.009651,32.530813]
    },
    {
      "name": "Casa del Migrante",
      "type": "shelter",
      "coordinates": [-117.0017001,32.5228819]
    },
    {
      "name": "Instituto Madre Asunta",
      "type": "shelter",
      "coordinates": [-117.0013542,32.523395]
    },
    {
      "name": "Volviendo a la Patria A.C. Centro para Migrantes",
      "type": "shelter",
      "coordinates": [-117.0001271,32.5359546]
    },
    {
      "name": "Casa De Oracion Del Migrante A.C.",
      "type": "shelter",
      "coordinates": [-116.9980122,32.530414]
    },
    {
      "name": "Simon Bolívar 12512",
      "type": "shelter",
      "coordinates": [-116.9947589,32.5415204]
    },
    {
      "name": "Mision Evangelica Roca de Salvacion A.C.",
      "type": "shelter",
      "coordinates": [-116.9047369,32.4701767]
    },
    {
      "name": "Iglesia Cristiana Bautista Camino de Salvacion",
      "type": "shelter",
      "coordinates": [-116.8748933,32.5003809]
    },
    {
      "name": "Iglesia Casa de Dios",
      "type": "shelter",
      "coordinates": [-116.8617021,32.4729917]
    },
    {
      "name": "Hospital Guadalajara",
      "type": "medicine",
      "coordinates": [-117.0466197,32.5343723]
    },
    {
      "name": "Hospital México",
      "type": "medicine",
      "coordinates": [-117.028058,32.5385205]
    },
    {
      "name": "Centro de Rehabilitacion jardin de las Mariposas, A.C.",
      "type": "shelter",
      "coordinates": [-117.032846,32.5198823]
    }
  ]
}